[
    {
        "Name": "BJ's Restaurant and Brewhouse",
        "Address": "11700 Princeton Pike",
        "Hours": "Weekday: 11am - 11pm. Weekend: 11am-12am",
        "Rating": "3.5/5 Stars"
    },
    {
        "Name": "Blue Ash Chili",
        "Address": "9565 Kenwood Road",
        "Hours": "Monday - Saturday: 10am - 8:30pm",
        "Rating": "4.5/5 Starts"
    },
    {
        "Name": "BRU Burger Bar",
        "Address": "41 East 6th Street",
        "Hours": "Weekday: 11am - 9pm. Weekend: 11am-10pm",
        "Rating": "4.5/5 Starts"
    },
    {
        "Name": "Catherine's Good Eats",
        "Address": "112 West Wyoming Ave",
        "Hours": "Sunday 12pm - 7pm",
        "Rating": "3/5 Stars"
    },
    {
        "Name": "Gabby's Cafe",
        "Address": "515 Wyoming Ave",
        "Hours": "Monday - Thursday: 11am - 8pm. Friday - Saturday: 11am - 9pm.",
        "Rating":"4/5 Stars"
    },
    {
        "Name": "Incline Public House",
        "Address": "2601 W 8th Street West",
        "Hours": "Monday - Thursday: 11am - 10pm. Friday - Saturday: 11am - 11pm. Sunday: 10am - 9pm",
        "Rating": "4.1 Stars"
    },
    {
        "Name": "Kitty's Sports Grill",
        "Address": "218 West Third Street Downtown",
        "Hours": "Everyday but Monday: 11am - 10pm",
        "Rating": "4.2 Stars"
    }
]